{"type": "FeatureCollection", "features": [{"type": "Feature", "geometry": {"type": "Point", "coordinates": [106.693974, 10.793795]}, "properties": {"name": "Saigon Poto Cafe & Restaurant", "address": "147 Ho\u00e0ng Sa, T\u00e2n \u0110\u1ecbnh"}}, {"type": "Feature", "geometry": {"type": "Point", "coordinates": [106.678511, 10.805875]}, "properties": {"name": "Trung Nguyen Coffee", "address": "587 Nguy\u1ec5n Ki\u1ec7m, Ph\u01b0\u1eddng 9"}}, {"type": "Feature", "geometry": {"type": "Point", "coordinates": [106.692117, 10.785123]}, "properties": {"name": "Ph\u00f2ng tr\u00e0 M&T\u00f4i", "address": "176 \u0110i\u1ec7n Bi\u00ean Ph\u1ee7, Ph\u01b0\u1eddng 6"}}, {"type": "Feature", "geometry": {"type": "Point", "coordinates": [106.696713, 10.807011]}, "properties": {"name": "Old Friends", "address": "H\u1ebbm 115, Ph\u01b0\u1eddng 14"}}, {"type": "Feature", "geometry": {"type": "Point", "coordinates": [106.68266, 10.804912]}, "properties": {"name": "Tr\u00e0 S\u1eefa Ma Thu\u1eadt", "address": "59 Th\u00edch Qu\u1ea3ng \u0110\u1ee9c, Ph\u01b0\u1eddng 4"}}, {"type": "Feature", "geometry": {"type": "Point", "coordinates": [106.691886, 10.796463]}, "properties": {"name": "Huy Tung Coffee", "address": "Ph\u01b0\u1eddng 7"}}, {"type": "Feature", "geometry": {"type": "Point", "coordinates": [106.684004, 10.804391]}, "properties": {"name": "La Mer coffee", "address": "H\u1ebbm 20 tr\u00ean, 3A Th\u00edch Qu\u1ea3ng \u0110\u1ee9c, Ph\u01b0\u1eddng 5"}}, {"type": "Feature", "geometry": {"type": "Point", "coordinates": [106.681324, 10.795219]}, "properties": {"name": "Ti\u1ec7m B\u00e1n C\u00e0 Ph\u00ea H\u1ea1t Tr\u01b0\u1eddng Th\u1ecbnh", "address": "31 Hu\u1ef3nh V\u0103n B\u00e1nh, Ph\u01b0\u1eddng 17"}}, {"type": "Feature", "geometry": {"type": "Point", "coordinates": [106.693713, 10.799208]}, "properties": {"name": "Bidapro Cafe", "address": "89 V\u1ea1n Ki\u1ebfp, Ph\u01b0\u1eddng 3"}}, {"type": "Feature", "geometry": {"type": "Point", "coordinates": [106.689723, 10.79829]}, "properties": {"name": "Sinh t\u1ed1 Bfruits", "address": "48 Hoa S\u1ee9, Ph\u01b0\u1eddng 7"}}, {"type": "Feature", "geometry": {"type": "Point", "coordinates": [106.686471, 10.798726]}, "properties": {"name": "Cafe M\u00ea Kh\u00fac", "address": "218 Hoa Lan, Ph\u01b0\u1eddng 2"}}, {"type": "Feature", "geometry": {"type": "Point", "coordinates": [106.684717, 10.789309]}, "properties": {"name": "An Vat 4h Chieu Online Service", "address": "{{Province, Ph\u01b0\u1eddng 8"}}, {"type": "Feature", "geometry": {"type": "Point", "coordinates": [106.689543, 10.793965]}, "properties": {"name": "Story M Cafe", "address": "51 \u0110\u01b0\u1eddng Tr\u1ea7n Nh\u1eadt Du\u1eadt, T\u00e2n \u0110\u1ecbnh"}}, {"type": "Feature", "geometry": {"type": "Point", "coordinates": [106.68996, 10.806821]}, "properties": {"name": "C\u00e0 Ph\u00ea 76", "address": "76 Ho\u00e0ng Hoa Th\u00e1m, Ph\u01b0\u1eddng 7"}}, {"type": "Feature", "geometry": {"type": "Point", "coordinates": [106.689124, 10.799959]}, "properties": {"name": "S\u01a1n Coffee & Tea", "address": "A001 chung c\u01b0 Nhi\u00eau T\u1ee9, \u0110\u01b0\u1eddng Hoa S\u1ee9, Ph\u01b0\u1eddng 7"}}, {"type": "Feature", "geometry": {"type": "Point", "coordinates": [106.688746, 10.799501]}, "properties": {"name": "Digital Coffee", "address": "37 Hoa S\u1ee9, Ph\u01b0\u1eddng 7"}}, {"type": "Feature", "geometry": {"type": "Point", "coordinates": [106.68895, 10.801792]}, "properties": {"name": "Kingdom Next Gen Nhi\u00eau T\u1ee9", "address": "1 Nhi\u00eau T\u1ee9, Ph\u01b0\u1eddng 7"}}, {"type": "Feature", "geometry": {"type": "Point", "coordinates": [106.688705, 10.799416]}, "properties": {"name": "Palmy - Coffee & Milk Tea", "address": "27B Hoa S\u1ee9, ph\u01b0\u1eddng 7, Ph\u00fa Nhu\u1eadn, H\u1ed3 Ch\u00ed Minh,Vi\u1ec7t Nam, Ph\u01b0\u1eddng 7"}}, {"type": "Feature", "geometry": {"type": "Point", "coordinates": [106.687677, 10.79919]}, "properties": {"name": "R\u00f3t Cafe", "address": "Chung c\u01b0 A3, S\u1ed1 012, Phan X\u00edch Long, ph\u01b0\u1eddng 07"}}, {"type": "Feature", "geometry": {"type": "Point", "coordinates": [106.687927, 10.798962]}, "properties": {"name": "Carina Cafe shop Cafe Food And Eggs Delicious", "address": "08 Hoa C\u00fac, Ph\u01b0\u1eddng 7"}}]}